ID,Name,Latitude,Longitude
101,Alice,26.80018104,75.81106672
102,Bob,26.80415454,75.81861408
107,Clone,26.74838247,75.82459905
103,Charlie,26.80852775,75.83163168
104,David,26.76736069,75.79683527
105,Eve,26.73718532,75.83157815
106,Vijay,26.73212055,75.83783435
1011,jay,26.68903426,75.81634537
109,jake,26.82039979,75.78369404
1010,jane,26.80804787,75.81264328
112,Nicky,26.80663329,75.80796569
11,nike,26.81116993,75.82300696
